[
  {
    "idStore": "512d31ee54684414989214ae",
    "name": "Punk Records",
    "number": "27",
    "street": "Rue des MarÃ©chaux",
    "zipCode": "54000",
    "city": "Nancy",
    "state": "Meurthe-et-Moselle",
    "country": "France",
    "latitude": 48.69407,
    "longitude": 6.18107,
    "imageUrl": null,
    "ratingAvg": 0.0
  },
  {
    "idStore": "51269f135468441ae8b25fb2",
    "name": "Sonic Records",
    "number": "43",
    "street": "Rue De Bras",
    "zipCode": "14000",
    "city": "Caen",
    "state": "Calvados",
    "country": "France",
    "latitude": 49.181646,
    "longitude": -0.3667085,
    "imageUrl": null,
    "ratingAvg": 0.0
  },
  {
    "idStore": "523beebce4b0bf55b0c1ecec",
    "name": "Mood",
    "number": "11",
    "street": "Rue AndrÃ© Joineau",
    "zipCode": "93310",
    "city": "Le PrÃ©-Saint-Gervais",
    "state": "Seine-Saint-Denis",
    "country": "France",
    "latitude": 48.887886,
    "longitude": 2.403856,
    "imageUrl": "http://disquaire.cleverapps.io/disquaire/resources/image/logo_mood.png",
    "ratingAvg": 0.0
  },
  {
    "idStore": "51328dcc5468445c24e7aa7e",
    "name": "Rolling Rock",
    "number": "16",
    "street": "Rue Du Port",
    "zipCode": "63000",
    "city": "Clermont-Ferrand",
    "state": "Puy-de-DÃ´me",
    "country": "France",
    "latitude": 45.7802672,
    "longitude": 3.0881058,
    "imageUrl": null,
    "ratingAvg": 0.0
  },
  {
    "idStore": "512698725468441ae8b25f97",
    "name": "Lucky Records",
    "number": "66",
    "street": "Rue De La Verrerie",
    "zipCode": "75004",
    "city": "Paris",
    "state": "Paris",
    "country": "France",
    "latitude": 48.858585,
    "longitude": 2.3514952,
    "imageUrl": null,
    "ratingAvg": 0.0
  },
  {
    "idStore": "512d322054684414989214b1",
    "name": "L'occase de l'Oncle Tom",
    "number": "119",
    "street": "Grand Rue",
    "zipCode": "67000",
    "city": "Strasbourg",
    "state": "Bas-Rhin",
    "country": "France",
    "latitude": 48.5811452,
    "longitude": 7.7458471,
    "imageUrl": null,
    "ratingAvg": 0.0
  },
  {
    "idStore": "5126946c5468441ae8b25f87",
    "name": "Crocodisc",
    "number": "40-42",
    "street": "Rue des Ecoles",
    "zipCode": "75005",
    "city": "Paris",
    "state": "Paris",
    "country": "France",
    "latitude": 48.8492318,
    "longitude": 2.3463424,
    "imageUrl": null,
    "ratingAvg": 0.0
  },
  {
    "idStore": "512699025468441ae8b25f9c",
    "name": "Music Please",
    "number": "5",
    "street": "Rue Jean Moinon",
    "zipCode": "75010",
    "city": "Paris",
    "state": "Paris",
    "country": "France",
    "latitude": 48.8739736,
    "longitude": 2.3710144,
    "imageUrl": "https://disquaire.cleverapps.io/disquaire/resources/image/logo_music_please.jpg",
    "ratingAvg": 3.0
  },
  {
    "idStore": "5126935e5468441ae8b25f84",
    "name": "Betino's Record Shop",
    "number": "32",
    "street": "Rue Saint Sebastien",
    "zipCode": "75011",
    "city": "Paris",
    "state": "Paris",
    "country": "France",
    "latitude": 48.8613761,
    "longitude": 2.3702279,
    "imageUrl": "http://disquaire.cleverapps.io/disquaire/resources/image/logo_betinos.png",
    "ratingAvg": 0.0
  },
  {
    "idStore": "51269e015468441ae8b25fa5",
    "name": "Super Fly Records",
    "number": "53",
    "street": "Rue Notre-Dame-de-Nazareth",
    "zipCode": "75003",
    "city": "Paris",
    "state": "Paris",
    "country": "France",
    "latitude": 48.8676349,
    "longitude": 2.3566949,
    "imageUrl": "https://disquaire.cleverapps.io/disquaire/resources/image/logo_superfly_record.png",
    "ratingAvg": 4.0
  },
  {
    "idStore": "513490b25468443d48e75b36",
    "name": "Bam Balam",
    "number": "29",
    "street": "Cours Pasteur",
    "zipCode": "33000",
    "city": "Bordeaux",
    "state": "Gironde",
    "country": "France",
    "latitude": 44.833408,
    "longitude": -0.574285,
    "imageUrl": "https://disquaire.cleverapps.io/disquaire/resources/image/logo_bam_balam.png",
    "ratingAvg": 0.0
  },
  {
    "idStore": "512697885468441ae8b25f90",
    "name": "Harmonia Mundi",
    "number": "2",
    "street": "Rue Edouard Colonne",
    "zipCode": "75001",
    "city": "Paris",
    "state": "Paris",
    "country": "France",
    "latitude": 48.8576851,
    "longitude": 2.3453981,
    "imageUrl": "http://disquaire.cleverapps.io/disquaire/resources/image/harmonia_mundi.jpg",
    "ratingAvg": 0.0
  },
  {
    "idStore": "5126944b5468441ae8b25f86",
    "name": "Colette",
    "number": "213",
    "street": "Rue Saint HonorÃ©",
    "zipCode": "75001",
    "city": "Paris",
    "state": "Paris",
    "country": "France",
    "latitude": 48.8653635,
    "longitude": 2.3309069,
    "imageUrl": "http://disquaire.cleverapps.io/disquaire/resources/image/logo_colette.png",
    "ratingAvg": 0.0
  },
  {
    "idStore": "51269e405468441ae8b25fa7",
    "name": "Toolbox Records",
    "number": "30",
    "street": "Rue Saint Ambroise",
    "zipCode": "75011",
    "city": "Paris",
    "state": "Paris",
    "country": "France",
    "latitude": 48.8628873,
    "longitude": 2.3791232,
    "imageUrl": "https://disquaire.cleverapps.io/disquaire/resources/image/logo_toolbox.png",
    "ratingAvg": 4.0
  },
  {
    "idStore": "51328d885468445c24e7aa7a",
    "name": "Chorus",
    "number": "11",
    "street": "Rue CÃ©sar Campinchi",
    "zipCode": "20200",
    "city": "Bastia",
    "state": "Haute-Corse",
    "country": "France",
    "latitude": 42.697283,
    "longitude": 9.450881,
    "imageUrl": null,
    "ratingAvg": 0.0
  },
  {
    "idStore": "5126976d5468441ae8b25f8f",
    "name": "Hands And Arms",
    "number": "1",
    "street": "Rue Charles Garnier",
    "zipCode": "93400",
    "city": "Saint-Ouen",
    "state": "Seine-Saint-Denis",
    "country": "France",
    "latitude": 48.89494166,
    "longitude": 2.34297261,
    "imageUrl": "http://disquaire.cleverapps.io/disquaire/resources/image/logo_handsandarms.png",
    "ratingAvg": 0.0
  },
  {
    "idStore": "513490495468443d48e75b30",
    "name": "Music Action",
    "number": "29",
    "street": "Rue De La Fusterie",
    "zipCode": "66000",
    "city": "Perpignan",
    "state": "PyrÃ©nÃ©es-Orientales",
    "country": "France",
    "latitude": 42.6979794,
    "longitude": 2.8963217,
    "imageUrl": null,
    "ratingAvg": 0.0
  },
  {
    "idStore": "513498375468443d48e75b59",
    "name": "Zorrock",
    "number": "27",
    "street": "Jaquet Droz",
    "zipCode": "2303",
    "city": "La Chaux-de-Fonds",
    "state": null,
    "country": "Suisse",
    "latitude": 47.1010546,
    "longitude": 6.8293498,
    "imageUrl": null,
    "ratingAvg": 0.0
  },
  {
    "idStore": "513492635468443d48e75b4b",
    "name": "Park Music",
    "number": "5",
    "street": "Rue De La Poste",
    "zipCode": "6700",
    "city": "Arlon",
    "state": null,
    "country": "Belgique",
    "latitude": 49.6825395,
    "longitude": 5.8142939,
    "imageUrl": null,
    "ratingAvg": 0.0
  },
  {
    "idStore": "513493635468443d48e75b4d",
    "name": "Disco 2000",
    "number": "4",
    "street": "Rue de Formanoir",
    "zipCode": "1070",
    "city": "Bruxelles",
    "state": null,
    "country": "Belgique",
    "latitude": 50.8354199,
    "longitude": 4.3075067,
    "imageUrl": null,
    "ratingAvg": 0.0
  },
  {
    "idStore": "51269e975468441ae8b25fab",
    "name": "Disques Du Yeti",
    "number": "53",
    "street": "Rue Jules VallÃ¨s",
    "zipCode": "93400",
    "city": "Saint-Ouen",
    "state": "Seine-Saint-Denis",
    "country": "France",
    "latitude": 48.901337,
    "longitude": 2.339819,
    "imageUrl": null,
    "ratingAvg": 0.0
  },
  {
    "idStore": "512d28225468441498921496",
    "name": "Planet R",
    "number": "4",
    "street": "Rue Du MarÃ©chal Leclerc",
    "zipCode": "50000",
    "city": "Saint-Lo",
    "state": "Manche",
    "country": "France",
    "latitude": 49.1149174,
    "longitude": -1.0900541,
    "imageUrl": null,
    "ratingAvg": 0.0
  },
  {
    "idStore": "512d2a4954684414989214a3",
    "name": "Besides Records",
    "number": "47",
    "street": "Rue dâ€™Amiens",
    "zipCode": "59000",
    "city": "Lille",
    "state": "Nord",
    "country": "France",
    "latitude": 50.633343,
    "longitude": 3.064514,
    "imageUrl": null,
    "ratingAvg": 0.0
  },
  {
    "idStore": "512693045468441ae8b25f82",
    "name": "Analog Collector",
    "number": "13",
    "street": "Rue Charles V",
    "zipCode": "75004",
    "city": "Paris",
    "state": "Paris",
    "country": "France",
    "latitude": 48.85298325,
    "longitude": 2.36265405,
    "imageUrl": "https://disquaire.cleverapps.io/disquaire/resources/image/logo_analog_collector.png",
    "ratingAvg": 0.0
  },
  {
    "idStore": "512696725468441ae8b25f8b",
    "name": "Gals Rock",
    "number": "17",
    "street": "Rue Henry Monnier",
    "zipCode": "75009",
    "city": "Paris",
    "state": "Paris",
    "country": "France",
    "latitude": 48.8801085,
    "longitude": 2.3372869,
    "imageUrl": "https://disquaire.cleverapps.io/disquaire/resources/image/logo_galsrock.png",
    "ratingAvg": 0.0
  },
  {
    "idStore": "5126964c5468441ae8b25f8a",
    "name": "Fargo",
    "number": "42",
    "street": "Rue De La Folie MÃ©ricourt",
    "zipCode": "75011",
    "city": "Paris",
    "state": "Paris",
    "country": "France",
    "latitude": 48.863481,
    "longitude": 2.372577,
    "imageUrl": "https://disquaire.cleverapps.io/disquaire/resources/image/logo_fargostore.gif",
    "ratingAvg": 4.0
  },
  {
    "idStore": "5126949c5468441ae8b25f88",
    "name": "Democratie",
    "number": "14",
    "street": "Boulevard Saint-Michel",
    "zipCode": "75006",
    "city": "Paris",
    "state": "Paris",
    "country": "France",
    "latitude": 48.85227,
    "longitude": 2.3433927,
    "imageUrl": "https://disquaire.cleverapps.io/disquaire/resources/image/democratie-paris.jpg",
    "ratingAvg": 0.0
  },
  {
    "idStore": "512698555468441ae8b25f96",
    "name": "Illogicall Music",
    "number": "63",
    "street": "Rue Blanche",
    "zipCode": "75009",
    "city": "Paris",
    "state": "Paris",
    "country": "France",
    "latitude": 48.881983,
    "longitude": 2.3317373,
    "imageUrl": null,
    "ratingAvg": 0.0
  },
  {
    "idStore": "5236f6bee4b0fbcae0ec65ae",
    "name": "Elvis My Happiness",
    "number": "9",
    "street": "Rue Notre Dame des Victoires",
    "zipCode": "75002",
    "city": "Paris",
    "state": "Paris",
    "country": "France",
    "latitude": 48.867784,
    "longitude": 2.341596,
    "imageUrl": null,
    "ratingAvg": 0.0
  },
  {
    "idStore": "51328de05468445c24e7aa7f",
    "name": "Spliff",
    "number": "8",
    "street": "Rue De La Treille",
    "zipCode": "63000",
    "city": "Clermont-Ferrand",
    "state": "Puy-de-DÃ´me",
    "country": "France",
    "latitude": 45.7768241,
    "longitude": 3.0862499,
    "imageUrl": null,
    "ratingAvg": 0.0
  },
  {
    "idStore": "512698a95468441ae8b25f98",
    "name": "Monster Melodies",
    "number": "9",
    "street": "Rue Des DÃ©chargeurs",
    "zipCode": "75001",
    "city": "Paris",
    "state": "Paris",
    "country": "France",
    "latitude": 48.85994554,
    "longitude": 2.34630324,
    "imageUrl": null,
    "ratingAvg": 0.0
  },
  {
    "idStore": "513279d4e4b03ec4fa71a75f",
    "name": "Nationale7",
    "number": "114",
    "street": "Rue Du Faubourg PoissonniÃ¨re",
    "zipCode": "75010",
    "city": "Paris",
    "state": "Paris",
    "country": "France",
    "latitude": 48.87930751,
    "longitude": 2.34938711,
    "imageUrl": "http://disquaire.cleverapps.io/disquaire/resources/image/logo_nationale7.png",
    "ratingAvg": 0.0
  },
  {
    "idStore": "512698045468441ae8b25f93",
    "name": "Harmonia Mundi",
    "number": "54",
    "street": "Rue St Placide",
    "zipCode": "75006",
    "city": "Paris",
    "state": "Paris",
    "country": "France",
    "latitude": 48.8476002,
    "longitude": 2.3264213,
    "imageUrl": "http://disquaire.cleverapps.io/disquaire/resources/image/harmonia_mundi.jpg",
    "ratingAvg": 0.0
  },
  {
    "idStore": "512696895468441ae8b25f8c",
    "name": "Gibert Joseph",
    "number": "26-34",
    "street": "Boulevard Saint Michel",
    "zipCode": "75006",
    "city": "Paris",
    "state": "Paris",
    "country": "France",
    "latitude": 48.850291,
    "longitude": 2.3426772,
    "imageUrl": "http://disquaire.cleverapps.io/disquaire/resources/image/logo_gibert_joseph.jpg",
    "ratingAvg": 0.0
  },
  {
    "idStore": "51269a205468441ae8b25fa4",
    "name": "Souffle Continu",
    "number": "20-22",
    "street": "Rue Gerbier",
    "zipCode": "75011",
    "city": "Paris",
    "state": "Paris",
    "country": "France",
    "latitude": 48.8587945,
    "longitude": 2.3861982,
    "imageUrl": "https://disquaire.cleverapps.io/disquaire/resources/image/logo_soufflecontinu.png",
    "ratingAvg": 4.5
  },
  {
    "idStore": "512695075468441ae8b25f89",
    "name": "Balades Sonores",
    "number": "1",
    "street": "Avenue Trudaine",
    "zipCode": "75009",
    "city": "Paris",
    "state": "Paris",
    "country": "France",
    "latitude": 48.8817863,
    "longitude": 2.3465024,
    "imageUrl": "https://disquaire.cleverapps.io/disquaire/resources/image/la_fabrique5.jpg",
    "ratingAvg": 0.0
  },
  {
    "idStore": "5126974a5468441ae8b25f8e",
    "name": "Ground Zero",
    "number": "23",
    "street": "Rue Sainte Marthe",
    "zipCode": "75010",
    "city": "Paris",
    "state": "Paris",
    "country": "France",
    "latitude": 48.8741463,
    "longitude": 2.3721698,
    "imageUrl": "http://disquaire.cleverapps.io/disquaire/resources/image/logo_groundzero.png",
    "ratingAvg": 0.0
  },
  {
    "idStore": "5231ae14e4b0f2ac71b9c344",
    "name": "Patate Records",
    "number": "57",
    "street": "Rue de Charonne",
    "zipCode": "75011",
    "city": "Paris",
    "state": "Paris",
    "country": "France",
    "latitude": 48.853389,
    "longitude": 2.379079,
    "imageUrl": null,
    "ratingAvg": 0.0
  },
  {
    "idStore": "512698da5468441ae8b25f9a",
    "name": "Music Fear Satan",
    "number": "4 Bis",
    "street": "Rue Richard Lenoir",
    "zipCode": "75011",
    "city": "Paris",
    "state": "Paris",
    "country": "France",
    "latitude": 48.854353,
    "longitude": 2.382501,
    "imageUrl": null,
    "ratingAvg": 0.0
  },
  {
    "idStore": "5234e6f2e4b071fe7a2444ed",
    "name": "L'international Records",
    "number": "12",
    "street": "Rue Moret",
    "zipCode": "75011",
    "city": "Paris",
    "state": "Paris",
    "country": "France",
    "latitude": 48.866871,
    "longitude": 2.379714,
    "imageUrl": null,
    "ratingAvg": 0.0
  },
  {
    "idStore": "512692835468441ae8b25f81",
    "name": "All Access",
    "number": "3",
    "street": "Rue Brochant",
    "zipCode": "75017",
    "city": "Paris",
    "state": "Paris",
    "country": "France",
    "latitude": 48.88810551,
    "longitude": 2.31687927,
    "imageUrl": "https://disquaire.cleverapps.io/disquaire/resources/image/logo_allaccess.png",
    "ratingAvg": 0.0
  },
  {
    "idStore": "512697295468441ae8b25f8d",
    "name": "Groove Store",
    "number": "29",
    "street": "Rue Des Dames",
    "zipCode": "75017",
    "city": "Paris",
    "state": "Paris",
    "country": "France",
    "latitude": 48.8842901,
    "longitude": 2.324004,
    "imageUrl": "http://disquaire.cleverapps.io/disquaire/resources/image/logo_groovestore.png",
    "ratingAvg": 0.0
  },
  {
    "idStore": "5134969b5468443d48e75b54",
    "name": "Black Records",
    "number": "2",
    "street": "Rue du MarchÃ© Aux Herbes",
    "zipCode": "1728",
    "city": "Luxembourg",
    "state": null,
    "country": "Luxembourg",
    "latitude": 49.611621,
    "longitude": 6.1319346,
    "imageUrl": null,
    "ratingAvg": 0.0
  },
  {
    "idStore": "51328f545468445c24e7aa90",
    "name": "La Galette",
    "number": "31",
    "street": "Rue Des Trois Rois",
    "zipCode": "13006",
    "city": "Marseille",
    "state": "Bouches-du-RhÃ´ne",
    "country": "France",
    "latitude": 43.2932867,
    "longitude": 5.3853052,
    "imageUrl": null,
    "ratingAvg": 0.0
  },
  {
    "idStore": "512698125468441ae8b25f94",
    "name": "Harmonia Mundi",
    "number": "221",
    "street": "Avenue Jean-JaurÃ¨s",
    "zipCode": "75019",
    "city": "Paris",
    "state": "Paris",
    "country": "France",
    "latitude": 48.856614,
    "longitude": 2.3522219,
    "imageUrl": "http://disquaire.cleverapps.io/disquaire/resources/image/harmonia_mundi.jpg",
    "ratingAvg": 0.0
  },
  {
    "idStore": "51328e135468445c24e7aa82",
    "name": "La 4Ã¨me Dimension",
    "number": "12",
    "street": "Rue Armand JulliÃ©",
    "zipCode": "48400",
    "city": "Florac",
    "state": "LozÃ¨re",
    "country": "France",
    "latitude": 44.3254332,
    "longitude": 3.592621,
    "imageUrl": null,
    "ratingAvg": 0.0
  },
  {
    "idStore": "51328e5e5468445c24e7aa87",
    "name": "Art Disques",
    "number": "12",
    "street": "Place Gabriel Rambaud",
    "zipCode": "69001",
    "city": "Lyon",
    "state": "RhÃ´ne",
    "country": "France",
    "latitude": 45.7682171,
    "longitude": 4.8294293,
    "imageUrl": "https://disquaire.cleverapps.io/disquaire/resources/image/logo_art_disques.png",
    "ratingAvg": 0.0
  },
  {
    "idStore": "513297e05468445c24e7aa94",
    "name": "Le Comptoir du Disque",
    "number": "12",
    "street": "Rue De La Petite Loge",
    "zipCode": "34000",
    "city": "Montpellier",
    "state": "HÃ©rault",
    "country": "France",
    "latitude": 43.6106071,
    "longitude": 3.8784945,
    "imageUrl": null,
    "ratingAvg": 0.0
  },
  {
    "idStore": "51269ee25468441ae8b25faf",
    "name": "Dialogues Musiques",
    "number": "37",
    "street": "Rue Louis Pasteur",
    "zipCode": "29200",
    "city": "Brest",
    "state": "FinistÃ¨re",
    "country": "France",
    "latitude": 48.3878947,
    "longitude": -4.4902773,
    "imageUrl": null,
    "ratingAvg": 0.0
  },
  {
    "idStore": "5134984a5468443d48e75b5a",
    "name": "Disc-A-Brac",
    "number": "2",
    "street": "Rue de lâ€™Ale",
    "zipCode": "1003",
    "city": "Lausanne",
    "state": null,
    "country": "Suisse",
    "latitude": 46.5233383,
    "longitude": 6.6297202,
    "imageUrl": null,
    "ratingAvg": 0.0
  },
  {
    "idStore": "512d29fa54684414989214a0",
    "name": "Ciel Rouge",
    "number": "62",
    "street": "Rue Jean Jacques Rousseau",
    "zipCode": "21000",
    "city": "Dijon",
    "state": "CÃ´te-d'Or",
    "country": "France",
    "latitude": 47.3245778,
    "longitude": 5.044814,
    "imageUrl": null,
    "ratingAvg": 0.0
  },
  {
    "idStore": "51328d9a5468445c24e7aa7b",
    "name": "Backstage",
    "number": "11",
    "street": "Place Edgar Quinet",
    "zipCode": "01000",
    "city": "Bourg-en-Bresse",
    "state": "Ain",
    "country": "France",
    "latitude": 46.2040516,
    "longitude": 5.2265487,
    "imageUrl": "https://disquaire.cleverapps.io/disquaire/resources/image/logo_backstage.png",
    "ratingAvg": 0.0
  },
  {
    "idStore": "51328def5468445c24e7aa80",
    "name": "Arcady Disquaire",
    "number": "113",
    "street": "Grand Rue",
    "zipCode": "71290",
    "city": "Cuisery",
    "state": "SaÃ´ne-et-Loire",
    "country": "France",
    "latitude": 46.559214,
    "longitude": 5.001665,
    "imageUrl": "https://disquaire.cleverapps.io/disquaire/resources/image/logo_arcady.png",
    "ratingAvg": 0.0
  },
  {
    "idStore": "51328ea55468445c24e7aa8b",
    "name": "Jarring Effects",
    "number": "13",
    "street": "Rue RenÃ© Leynaud",
    "zipCode": "69001",
    "city": "Lyon",
    "state": "RhÃ´ne",
    "country": "France",
    "latitude": 45.76959389,
    "longitude": 4.83206928,
    "imageUrl": null,
    "ratingAvg": 0.0
  },
  {
    "idStore": "51328ecd5468445c24e7aa8d",
    "name": "Livity Reggae",
    "number": "1",
    "street": "Rue Docteur Augros",
    "zipCode": "69005",
    "city": "Lyon",
    "state": "RhÃ´ne",
    "country": "France",
    "latitude": 45.7667981,
    "longitude": 4.8279738,
    "imageUrl": null,
    "ratingAvg": 0.0
  },
  {
    "idStore": "51348fe45468443d48e75b2b",
    "name": "Sauramps OdyssÃ©e",
    "number": "2",
    "street": "Place De Lisbonne",
    "zipCode": "34000",
    "city": "Montpellier",
    "state": "HÃ©rault",
    "country": "France",
    "latitude": 43.6055823,
    "longitude": 3.9195065,
    "imageUrl": null,
    "ratingAvg": 0.0
  },
  {
    "idStore": "513490115468443d48e75b2d",
    "name": "Hit Import",
    "number": "11",
    "street": "Rue Lepante",
    "zipCode": "06000",
    "city": "Nice",
    "state": "Alpes-Maritimes",
    "country": "France",
    "latitude": 43.7044193,
    "longitude": 7.2698104,
    "imageUrl": null,
    "ratingAvg": 0.0
  },
  {
    "idStore": "51328e6c5468445c24e7aa88",
    "name": "Dangerhouse",
    "number": "3",
    "street": "Rue Thimmonier",
    "zipCode": "69001",
    "city": "Lyon",
    "state": "RhÃ´ne",
    "country": "France",
    "latitude": 45.7677794,
    "longitude": 4.8292533,
    "imageUrl": null,
    "ratingAvg": 0.0
  },
  {
    "idStore": "513490625468443d48e75b31",
    "name": "Fai Virar",
    "number": "2",
    "street": "Rue du ChÃ¢teau",
    "zipCode": "34120",
    "city": "PÃ©zenas",
    "state": "HÃ©rault",
    "country": "France",
    "latitude": 43.461225,
    "longitude": 3.421919,
    "imageUrl": "http://disquaire.cleverapps.io/disquaire/resources/image/logo_fai_virar.png",
    "ratingAvg": 0.0
  },
  {
    "idStore": "513490a35468443d48e75b35",
    "name": "Sky Valley Shop",
    "number": "51",
    "street": "Rue Croix Verte",
    "zipCode": "81000",
    "city": "Albi",
    "state": "Tarn",
    "country": "France",
    "latitude": 43.9283895,
    "longitude": 2.1501749,
    "imageUrl": null,
    "ratingAvg": 0.0
  },
  {
    "idStore": "513491225468443d48e75b3c",
    "name": "Disco Buzz",
    "number": "6",
    "street": "Rue Valery Meunier",
    "zipCode": "64000",
    "city": "Pau",
    "state": "PyrÃ©nÃ©es-Atlantiques",
    "country": "France",
    "latitude": 43.2960837,
    "longitude": -0.3662068,
    "imageUrl": "http://disquaire.cleverapps.io/disquaire/resources/image/logo_discobuzz.png",
    "ratingAvg": 0.0
  },
  {
    "idStore": "513492225468443d48e75b47",
    "name": "Made in Jazz",
    "number": "10",
    "street": "Rue Cujas",
    "zipCode": "31000",
    "city": "Toulouse",
    "state": "Haute-Garonne",
    "country": "France",
    "latitude": 43.6012898,
    "longitude": 1.4411382,
    "imageUrl": null,
    "ratingAvg": 0.0
  },
  {
    "idStore": "5134987e5468443d48e75b5d",
    "name": "33 and Co",
    "number": "49",
    "street": "Grand Rue",
    "zipCode": "67000",
    "city": "Strasbourg",
    "state": "Bas-Rhin",
    "country": "France",
    "latitude": 48.5822162,
    "longitude": 7.7419474,
    "imageUrl": "http://disquaire.cleverapps.io/disquaire/resources/image/logo_33andco.png",
    "ratingAvg": 0.0
  },
  {
    "idStore": "5134988b5468443d48e75b5e",
    "name": "340ms",
    "number": "2",
    "street": "Rue Auguste Pelet",
    "zipCode": "30000",
    "city": "NÃ®mes",
    "state": "Gard",
    "country": "France",
    "latitude": 43.8375837,
    "longitude": 4.3596616,
    "imageUrl": "https://disquaire.cleverapps.io/disquaire/resources/image/logo_340ms.jpg",
    "ratingAvg": 0.0
  },
  {
    "idStore": "513493875468443d48e75b4f",
    "name": "Librairie 100 Papiers",
    "number": "23",
    "street": "Avenue Louis Bertrand",
    "zipCode": "1030",
    "city": "Bruxelles",
    "state": null,
    "country": "Belgique",
    "latitude": 50.8636594,
    "longitude": 4.3745162,
    "imageUrl": null,
    "ratingAvg": 0.0
  },
  {
    "idStore": "513496695468443d48e75b52",
    "name": "Lido Music",
    "number": "45",
    "street": "Rue Des Croisiers",
    "zipCode": "5000",
    "city": "Namur",
    "state": null,
    "country": "Belgique",
    "latitude": 50.4674228,
    "longitude": 4.8627991,
    "imageUrl": null,
    "ratingAvg": 0.0
  },
  {
    "idStore": "513496845468443d48e75b53",
    "name": "Cook and Book",
    "number": "1",
    "street": "Place du Temps libre",
    "zipCode": "1200",
    "city": "Woluwe-Saint-Lambert",
    "state": null,
    "country": "Belgique",
    "latitude": 50.8479348,
    "longitude": 4.4372572,
    "imageUrl": null,
    "ratingAvg": 0.0
  },
  {
    "idStore": "5134973e5468443d48e75b58",
    "name": "Sounds",
    "number": "8",
    "street": "Avenue Du Mail",
    "zipCode": "1205",
    "city": "GenÃ¨ve",
    "state": null,
    "country": "Suisse",
    "latitude": 46.19959,
    "longitude": 6.13966,
    "imageUrl": "http://disquaire.cleverapps.io/disquaire/resources/image/logo_sounds_records.png",
    "ratingAvg": 0.0
  },
  {
    "idStore": "5134985e5468443d48e75b5b",
    "name": "Obsession Records",
    "number": "4",
    "street": "Rue du Petit-Rocher",
    "zipCode": "1003",
    "city": "Lausanne",
    "state": null,
    "country": "Suisse",
    "latitude": 46.5243539,
    "longitude": 6.6262427,
    "imageUrl": null,
    "ratingAvg": 0.0
  },
  {
    "idStore": "513492435468443d48e75b49",
    "name": "Vicious Circle",
    "number": "7",
    "street": "Rue Des Puits Clos",
    "zipCode": "31000",
    "city": "Toulouse",
    "state": "Haute-Garonne",
    "country": "France",
    "latitude": 43.6018803,
    "longitude": 1.4442827,
    "imageUrl": "http://disquaire.cleverapps.io/disquaire/resources/image/logo_vicious_circle.png",
    "ratingAvg": 0.0
  },
  {
    "idStore": "512d2e1154684414989214a5",
    "name": "Minor Place Records",
    "number": "44 bis",
    "street": "Rue du Plat",
    "zipCode": "59000",
    "city": "Lille",
    "state": "Nord",
    "country": "France",
    "latitude": 50.6321165,
    "longitude": 3.0648418,
    "imageUrl": "https://disquaire.cleverapps.io/disquaire/resources/image/logo_minor_place_records.png",
    "ratingAvg": 5.0
  },
  {
    "idStore": "512d2e9754684414989214ac",
    "name": "La Troccase",
    "number": "13",
    "street": "Passage Du ThÃ©Ã¢tre",
    "zipCode": "68100",
    "city": "Mulhouse",
    "state": "Haut-Rhin",
    "country": "France",
    "latitude": 47.750839,
    "longitude": 7.335888,
    "imageUrl": null,
    "ratingAvg": 0.0
  },
  {
    "idStore": "51269e8c5468441ae8b25faa",
    "name": "Copamusic",
    "number": "52",
    "street": "Rue Jules VallÃ¨s",
    "zipCode": "93400",
    "city": "Saint-Ouen",
    "state": "Seine-Saint-Denis",
    "country": "France",
    "latitude": 48.901559,
    "longitude": 2.339146,
    "imageUrl": null,
    "ratingAvg": 0.0
  },
  {
    "idStore": "513492525468443d48e75b4a",
    "name": "The Rev",
    "number": "6",
    "street": "Quai De Rigny",
    "zipCode": "19000",
    "city": "Tulle",
    "state": "CorrÃ¨ze",
    "country": "France",
    "latitude": 45.264308,
    "longitude": 1.766032,
    "imageUrl": null,
    "ratingAvg": 0.0
  },
  {
    "idStore": "51269ef05468441ae8b25fb0",
    "name": "Espace Disc",
    "number": "9",
    "street": "Rue Arcisse de Caumont",
    "zipCode": "14000",
    "city": "Caen",
    "state": "Calvados",
    "country": "France",
    "latitude": 49.1817208,
    "longitude": -0.3674334,
    "imageUrl": null,
    "ratingAvg": 0.0
  },
  {
    "idStore": "512d2982546844149892149b",
    "name": "La Malle A Disques",
    "number": "1",
    "street": "Rue Du MarchÃ© Lanselles",
    "zipCode": "80000",
    "city": "Amiens",
    "state": "Somme",
    "country": "France",
    "latitude": 49.894067,
    "longitude": 2.295753,
    "imageUrl": null,
    "ratingAvg": 0.0
  },
  {
    "idStore": "51269ec25468441ae8b25fad",
    "name": "Bazoom",
    "number": "32",
    "street": "Rue Du Belzic",
    "zipCode": "56400",
    "city": "Auray",
    "state": "Morbihan",
    "country": "France",
    "latitude": 47.6659511,
    "longitude": -2.9852491,
    "imageUrl": null,
    "ratingAvg": 0.0
  },
  {
    "idStore": "513496d75468443d48e75b56",
    "name": "DCM",
    "number": "2",
    "street": "Avenue du Chamossaire",
    "zipCode": "1860",
    "city": "Aigle",
    "state": null,
    "country": "Suisse",
    "latitude": 46.3164777,
    "longitude": 6.968037,
    "imageUrl": null,
    "ratingAvg": 0.0
  },
  {
    "idStore": "512693765468441ae8b25f85",
    "name": "Calif De Belleville",
    "number": "23",
    "street": "Rue Sainte Marthe",
    "zipCode": "75010",
    "city": "Paris",
    "state": "Paris",
    "country": "France",
    "latitude": 48.8741463,
    "longitude": 2.3721698,
    "imageUrl": null,
    "ratingAvg": 0.0
  },
  {
    "idStore": "513491755468443d48e75b41",
    "name": "Plexus Records",
    "number": "198",
    "street": "Grand Rue",
    "zipCode": "86000",
    "city": "Poitiers",
    "state": "Vienne",
    "country": "France",
    "latitude": 46.582815,
    "longitude": 0.3448494,
    "imageUrl": null,
    "ratingAvg": 0.0
  },
  {
    "idStore": "51269eaa5468441ae8b25fac",
    "name": "Pastime Paradise",
    "number": "132",
    "street": "Rue Des Rosiers",
    "zipCode": "93400",
    "city": "Saint-Ouen",
    "state": "Seine-Saint-Denis",
    "country": "France",
    "latitude": 48.9023258,
    "longitude": 2.3419562,
    "imageUrl": null,
    "ratingAvg": 0.0
  },
  {
    "idStore": "512698c55468441ae8b25f99",
    "name": "Music Avenue",
    "number": "10",
    "street": "Rue Paul Bert",
    "zipCode": "75011",
    "city": "Paris",
    "state": "Paris",
    "country": "France",
    "latitude": 48.8516812,
    "longitude": 2.3847194,
    "imageUrl": null,
    "ratingAvg": 0.0
  },
  {
    "idStore": "5234e4f6e4b071fe7a2444eb",
    "name": "General Music",
    "number": "7",
    "street": "Rue De Verdun",
    "zipCode": "34000",
    "city": "Montpellier",
    "state": "HÃ©rault",
    "country": "France",
    "latitude": 43.607649,
    "longitude": 3.880357,
    "imageUrl": "http://disquaire.cleverapps.io/disquaire/resources/image/logo_general_music.png",
    "ratingAvg": 0.0
  },
  {
    "idStore": "5234e5c4e4b071fe7a2444ec",
    "name": "General Music",
    "number": "30",
    "street": "Rue des Foubisseurs",
    "zipCode": "84000",
    "city": "Avignon",
    "state": "Vaucluse",
    "country": "France",
    "latitude": 43.947709,
    "longitude": 4.807945,
    "imageUrl": "http://disquaire.cleverapps.io/disquaire/resources/image/logo_general_music.png",
    "ratingAvg": 0.0
  },
  {
    "idStore": "512698ef5468441ae8b25f9b",
    "name": "Musiques Musiques",
    "number": "13",
    "street": "Rue GÃ©rando",
    "zipCode": "75009",
    "city": "Paris",
    "state": "Paris",
    "country": "France",
    "latitude": 48.88263166,
    "longitude": 2.34603971,
    "imageUrl": null,
    "ratingAvg": 0.0
  },
  {
    "idStore": "512699155468441ae8b25f9d",
    "name": "Plus De Bruit",
    "number": "35",
    "street": "Rue De La Rochefoucault",
    "zipCode": "75009",
    "city": "Paris",
    "state": "Paris",
    "country": "France",
    "latitude": 48.8795193,
    "longitude": 2.3347828,
    "imageUrl": null,
    "ratingAvg": 0.0
  },
  {
    "idStore": "512699865468441ae8b25fa1",
    "name": "Rock N Roll Voltage",
    "number": "23",
    "street": "Rue Du Roi De Sicile",
    "zipCode": "75004",
    "city": "Paris",
    "state": "Paris",
    "country": "France",
    "latitude": 48.8563314,
    "longitude": 2.3577939,
    "imageUrl": null,
    "ratingAvg": 0.0
  },
  {
    "idStore": "51269a065468441ae8b25fa3",
    "name": "Le Silence de La Rue",
    "number": "39",
    "street": "Rue Faidherbe",
    "zipCode": "75011",
    "city": "Paris",
    "state": "Paris",
    "country": "France",
    "latitude": 48.8534518,
    "longitude": 2.3825228,
    "imageUrl": null,
    "ratingAvg": 0.0
  },
  {
    "idStore": "51269e255468441ae8b25fa6",
    "name": "Techno Import",
    "number": "16",
    "street": "Rue Des Taillandiers",
    "zipCode": "75011",
    "city": "Paris",
    "state": "Paris",
    "country": "France",
    "latitude": 48.8547202,
    "longitude": 2.3750413,
    "imageUrl": null,
    "ratingAvg": 0.0
  },
  {
    "idStore": "513490d95468443d48e75b38",
    "name": "Total Heaven",
    "number": "6",
    "street": "Rue De Candale",
    "zipCode": "33000",
    "city": "Bordeaux",
    "state": "Gironde",
    "country": "France",
    "latitude": 44.8321948,
    "longitude": -0.5720824,
    "imageUrl": "http://disquaire.cleverapps.io/disquaire/resources/image/logo_total_heaven.png",
    "ratingAvg": 5.0
  },
  {
    "idStore": "51269e7f5468441ae8b25fa9",
    "name": "Vinyl Office",
    "number": "9",
    "street": "Rue Trousseau",
    "zipCode": "75011",
    "city": "Paris",
    "state": "Paris",
    "country": "France",
    "latitude": 48.8514236,
    "longitude": 2.3785407,
    "imageUrl": null,
    "ratingAvg": 0.0
  },
  {
    "idStore": "512699a15468441ae8b25fa2",
    "name": "Le Salon Rouge",
    "number": "20",
    "street": "Rue Du Temple",
    "zipCode": "75004",
    "city": "Paris",
    "state": "Paris",
    "country": "France",
    "latitude": 48.8594872,
    "longitude": 2.3542907,
    "imageUrl": null,
    "ratingAvg": 0.0
  },
  {
    "idStore": "5126a0275468441ae8b25fb4",
    "name": "Imagine",
    "number": "1",
    "street": "Rue Des Grignons",
    "zipCode": "22360",
    "city": "Langueux",
    "state": "CÃ´tes-d'Armor",
    "country": "France",
    "latitude": 48.4958724,
    "longitude": -2.7323417,
    "imageUrl": null,
    "ratingAvg": 0.0
  },
  {
    "idStore": "5126a0715468441ae8b25fb6",
    "name": "ZBD Records",
    "number": "120",
    "street": "Rue Casimir Delavigne",
    "zipCode": "76600",
    "city": "Le Havre",
    "state": "Seine-Maritime",
    "country": "France",
    "latitude": 49.4960311,
    "longitude": 0.1258625,
    "imageUrl": null,
    "ratingAvg": 0.0
  },
  {
    "idStore": "512d27895468441498921491",
    "name": "Blindspot",
    "number": "36",
    "street": "Rue Poullain Duparc",
    "zipCode": "35000",
    "city": "Rennes",
    "state": "Ille-et-Vilaine",
    "country": "France",
    "latitude": 48.1086582,
    "longitude": -1.682341,
    "imageUrl": "http://disquaire.cleverapps.io/disquaire/resources/image/logo_blindspot.png",
    "ratingAvg": 3.0
  },
  {
    "idStore": "512d28f15468441498921499",
    "name": "Madison",
    "number": "135",
    "street": "Rue Colbert",
    "zipCode": "37000",
    "city": "Tours",
    "state": "Indre-et-Loire",
    "country": "France",
    "latitude": 47.3962688,
    "longitude": 0.6927281,
    "imageUrl": null,
    "ratingAvg": 0.0
  },
  {
    "idStore": "512d296e546844149892149a",
    "name": "Librairie Cheminant",
    "number": "19",
    "street": "Rue Joseph Le Brix",
    "zipCode": "56000",
    "city": "Vannes",
    "state": "Morbihan",
    "country": "France",
    "latitude": 47.6590708,
    "longitude": -2.7591941,
    "imageUrl": null,
    "ratingAvg": 0.0
  },
  {
    "idStore": "512d2e2554684414989214a6",
    "name": "Urban Music",
    "number": "30",
    "street": "Rue Saint Nicolas",
    "zipCode": "59000",
    "city": "Lille",
    "state": "Nord",
    "country": "France",
    "latitude": 50.63615,
    "longitude": 3.06492,
    "imageUrl": null,
    "ratingAvg": 0.0
  },
  {
    "idStore": "512d2e4654684414989214a8",
    "name": "Disc Over",
    "number": "9",
    "street": "Rue Sainte Marie",
    "zipCode": "57000",
    "city": "Metz",
    "state": "Moselle",
    "country": "France",
    "latitude": 49.1190301,
    "longitude": 6.1717152,
    "imageUrl": null,
    "ratingAvg": 0.0
  },
  {
    "idStore": "512d2e5954684414989214a9",
    "name": "Blow up",
    "number": "28",
    "street": "Rue Des Jardins",
    "zipCode": "57000",
    "city": "Metz",
    "state": "Moselle",
    "country": "France",
    "latitude": 49.122195,
    "longitude": 6.1778584,
    "imageUrl": null,
    "ratingAvg": 0.0
  },
  {
    "idStore": "512d2e6e54684414989214aa",
    "name": "La Face CachÃ©e",
    "number": "6",
    "street": "Rue Du Lancieu",
    "zipCode": "57000",
    "city": "Metz",
    "state": "Moselle",
    "country": "France",
    "latitude": 49.116226,
    "longitude": 6.175457,
    "imageUrl": null,
    "ratingAvg": 0.0
  },
  {
    "idStore": "516e59d4e4b0bc9d971a4b21",
    "name": "Librairie ParallÃ¨les",
    "number": "47",
    "street": "Rue Saint-HonorÃ©",
    "zipCode": "75001",
    "city": "Paris",
    "state": "Paris",
    "country": "France",
    "latitude": 48.860905,
    "longitude": 2.345377,
    "imageUrl": null,
    "ratingAvg": 0.0
  },
  {
    "idStore": "516e5924e4b0bc9d971a4b20",
    "name": "Le Rideau De Fer",
    "number": "12",
    "street": "Rue AndrÃ© Del Sarte",
    "zipCode": "75018",
    "city": "Paris",
    "state": "Paris",
    "country": "France",
    "latitude": 48.885822,
    "longitude": 2.34619,
    "imageUrl": null,
    "ratingAvg": 0.0
  },
  {
    "idStore": "512d320054684414989214af",
    "name": "Virgo Music",
    "number": "38",
    "street": "Rue De La RÃ©publique",
    "zipCode": "25300",
    "city": "Pontarlier",
    "state": "Doubs",
    "country": "France",
    "latitude": 46.9041039,
    "longitude": 6.354242,
    "imageUrl": null,
    "ratingAvg": 0.0
  },
  {
    "idStore": "512d33a054684414989214b6",
    "name": "MusiqueS-Arles",
    "number": "14",
    "street": "Rue RÃ©attu",
    "zipCode": "13200",
    "city": "Arles",
    "state": "Bouches-du-RhÃ´ne",
    "country": "France",
    "latitude": 43.67857,
    "longitude": 4.62807,
    "imageUrl": null,
    "ratingAvg": 0.0
  },
  {
    "idStore": "5134920f5468443d48e75b46",
    "name": "Le Laboratoire",
    "number": "9",
    "street": "Rue De La Bourse",
    "zipCode": "31000",
    "city": "Toulouse",
    "state": "Haute-Garonne",
    "country": "France",
    "latitude": 43.6004431,
    "longitude": 1.4424604,
    "imageUrl": "http://disquaire.cleverapps.io/disquaire/resources/image/logo_laboratoire.png",
    "ratingAvg": 0.0
  },
  {
    "idStore": "513496ad5468443d48e75b55",
    "name": "CD Buttek",
    "number": "16",
    "street": "Rue du MarchÃ© Aux Herbes",
    "zipCode": "1728",
    "city": "Luxembourg",
    "state": null,
    "country": "Luxembourg",
    "latitude": 49.611621,
    "longitude": 6.1319346,
    "imageUrl": null,
    "ratingAvg": 0.0
  },
  {
    "idStore": "51328dac5468445c24e7aa7c",
    "name": "Mod Disc",
    "number": "132",
    "street": "Avenue Gabriel PÃ©ri",
    "zipCode": "84300",
    "city": "Cavaillon",
    "state": "Vaucluse",
    "country": "France",
    "latitude": 43.837051,
    "longitude": 5.037909,
    "imageUrl": null,
    "ratingAvg": 0.0
  },
  {
    "idStore": "512d299e546844149892149c",
    "name": "Gibert Joseph",
    "number": "11",
    "street": "Rue GÃ©nÃ©ral Leclerc",
    "zipCode": "71100",
    "city": "Chalon sur SaÃ´ne",
    "state": "SaÃ´ne-et-Loire",
    "country": "France",
    "latitude": 46.78165,
    "longitude": 4.85381,
    "imageUrl": "http://disquaire.cleverapps.io/disquaire/resources/image/logo_gibert_joseph.jpg",
    "ratingAvg": 0.0
  },
  {
    "idStore": "512d2e3554684414989214a7",
    "name": "Gibert Joseph",
    "number": "11",
    "street": "Rue Philibert Laguiche",
    "zipCode": "71000",
    "city": "MÃ¢con",
    "state": "SaÃ´ne-et-Loire",
    "country": "France",
    "latitude": 46.3056303,
    "longitude": 4.8343927,
    "imageUrl": "http://disquaire.cleverapps.io/disquaire/resources/image/logo_gibert_joseph.jpg",
    "ratingAvg": 0.0
  },
  {
    "idStore": "513490745468443d48e75b32",
    "name": "Gibert Joseph",
    "number": "2A",
    "street": "Rue Jacquard",
    "zipCode": "69120",
    "city": "Vaulx en Velin",
    "state": "RhÃ´ne",
    "country": "France",
    "latitude": 45.7636604,
    "longitude": 4.9294965,
    "imageUrl": "http://disquaire.cleverapps.io/disquaire/resources/image/logo_gibert_joseph.jpg",
    "ratingAvg": 0.0
  },
  {
    "idStore": "513491ee5468443d48e75b44",
    "name": "Gibert Joseph",
    "number": "22",
    "street": "Rue Des Lois",
    "zipCode": "31000",
    "city": "Toulouse",
    "state": "Haute-Garonne",
    "country": "France",
    "latitude": 43.6055128,
    "longitude": 1.4418593,
    "imageUrl": "http://disquaire.cleverapps.io/disquaire/resources/image/logo_gibert_joseph.jpg",
    "ratingAvg": 0.0
  },
  {
    "idStore": "51328e7e5468445c24e7aa89",
    "name": "Gibert Joseph",
    "number": "3",
    "street": "Quai Gailleton",
    "zipCode": "69002",
    "city": "Lyon",
    "state": "RhÃ´ne",
    "country": "France",
    "latitude": 45.7569566,
    "longitude": 4.8361027,
    "imageUrl": "http://disquaire.cleverapps.io/disquaire/resources/image/logo_gibert_joseph.jpg",
    "ratingAvg": 0.0
  },
  {
    "idStore": "513491655468443d48e75b40",
    "name": "Gibert Joseph",
    "number": "3",
    "street": "Rue Gambetta",
    "zipCode": "86000",
    "city": "Poitiers",
    "state": "Vienne",
    "country": "France",
    "latitude": 46.5829164,
    "longitude": 0.3418413,
    "imageUrl": "http://disquaire.cleverapps.io/disquaire/resources/image/logo_gibert_joseph.jpg",
    "ratingAvg": 0.0
  },
  {
    "idStore": "512691af5468441ae8b25f80",
    "name": "Gibert Joseph",
    "number": "",
    "street": "Centre Commercial Art de Vivre",
    "zipCode": "78630",
    "city": "Orgeval",
    "state": "Yvelines",
    "country": "France",
    "latitude": 48.92493596,
    "longitude": 1.99272523,
    "imageUrl": "http://disquaire.cleverapps.io/disquaire/resources/image/logo_gibert_joseph.jpg",
    "ratingAvg": 0.0
  },
  {
    "idStore": "51328dff5468445c24e7aa81",
    "name": "Cosmic Trip",
    "number": "43",
    "street": "Rue De lâ€™Observance",
    "zipCode": "83300",
    "city": "Draguignan",
    "state": "Var",
    "country": "France",
    "latitude": 43.5377269,
    "longitude": 6.464993,
    "imageUrl": null,
    "ratingAvg": 0.0
  },
  {
    "idStore": "513298055468445c24e7aa96",
    "name": "Rock and Roll Attitude",
    "number": "5",
    "street": "Rue Du Petit Paris",
    "zipCode": "34000",
    "city": "Montpellier",
    "state": "HÃ©rault",
    "country": "France",
    "latitude": 43.6068229,
    "longitude": 3.8765049,
    "imageUrl": null,
    "ratingAvg": 0.0
  },
  {
    "idStore": "5126a1b254684428f0a5ceb7",
    "name": "Les AllumÃ©s Du Jazz",
    "number": "2",
    "street": "Rue De La GalÃ¨re",
    "zipCode": "72000",
    "city": "Le Mans",
    "state": "Sarthe",
    "country": "France",
    "latitude": 48.00611,
    "longitude": 0.199556,
    "imageUrl": null,
    "ratingAvg": 0.0
  },
  {
    "idStore": "5126983b5468441ae8b25f95",
    "name": "Harmonia Mundi",
    "number": "15",
    "street": "Avenue Montaigne",
    "zipCode": "75008",
    "city": "Paris",
    "state": "Paris",
    "country": "France",
    "latitude": 48.8656057,
    "longitude": 2.303239,
    "imageUrl": "http://disquaire.cleverapps.io/disquaire/resources/image/harmonia_mundi.jpg",
    "ratingAvg": 0.0
  },
  {
    "idStore": "5134939b5468443d48e75b50",
    "name": "Sunset Music",
    "number": "21",
    "street": "Rue De La Bascule",
    "zipCode": "1180",
    "city": "Bruxelles",
    "state": null,
    "country": "Belgique",
    "latitude": 50.8161971,
    "longitude": 4.3660282,
    "imageUrl": null,
    "ratingAvg": 0.0
  },
  {
    "idStore": "513493c25468443d48e75b51",
    "name": "Jukebox",
    "number": "38",
    "street": "Rue Haute Marcelle",
    "zipCode": "5000",
    "city": "Namur",
    "state": null,
    "country": "Belgique",
    "latitude": 50.4645143,
    "longitude": 4.8637253,
    "imageUrl": null,
    "ratingAvg": 0.0
  },
  {
    "idStore": "5126a26454684428f0a5cebb",
    "name": "Melomane",
    "number": "2",
    "street": "Quai De Turenne",
    "zipCode": "44000",
    "city": "Nantes",
    "state": "Loire-Atlantique",
    "country": "France",
    "latitude": 47.2131645,
    "longitude": -1.5536451,
    "imageUrl": null,
    "ratingAvg": 0.0
  },
  {
    "idStore": "5126a27454684428f0a5cebc",
    "name": "Oneness Records",
    "number": "32",
    "street": "Rue Du MarÃ©chal Joffre",
    "zipCode": "44000",
    "city": "Nantes",
    "state": "Loire-Atlantique",
    "country": "France",
    "latitude": 47.2218324,
    "longitude": -1.5473988,
    "imageUrl": null,
    "ratingAvg": 0.0
  },
  {
    "idStore": "512d2e8654684414989214ab",
    "name": "Collectors Boutique",
    "number": "50",
    "street": "Rue Jean Jacques Rousseau",
    "zipCode": "59370",
    "city": "Mons en Baroeul",
    "state": "Nord",
    "country": "France",
    "latitude": 50.638368,
    "longitude": 3.1013351,
    "imageUrl": null,
    "ratingAvg": 0.0
  },
  {
    "idStore": "512d2eae54684414989214ad",
    "name": "Le Mange Disques",
    "number": "38",
    "street": "Rue Des SÅ“urs-Macarons",
    "zipCode": "54000",
    "city": "Nancy",
    "state": "Meurthe-et-Moselle",
    "country": "France",
    "latitude": 48.68874,
    "longitude": 6.18475,
    "imageUrl": null,
    "ratingAvg": 0.0
  },
  {
    "idStore": "512d323254684414989214b2",
    "name": "Cosa Nostra Shop",
    "number": "19",
    "street": "Rue Paillot de Montabert",
    "zipCode": "10000",
    "city": "Troyes",
    "state": "Aube",
    "country": "France",
    "latitude": 48.2973859,
    "longitude": 4.0726751,
    "imageUrl": null,
    "ratingAvg": 0.0
  },
  {
    "idStore": "51328f435468445c24e7aa8f",
    "name": "Sofa Record Shop",
    "number": "7",
    "street": "Rue dâ€™AlgÃ©rie",
    "zipCode": "69001",
    "city": "Lyon",
    "state": "RhÃ´ne",
    "country": "France",
    "latitude": 45.764043,
    "longitude": 4.835659,
    "imageUrl": null,
    "ratingAvg": 0.0
  },
  {
    "idStore": "51328f6f5468445c24e7aa91",
    "name": "Lollipop Music Store",
    "number": "2",
    "street": "Boulevard Theodore Thurner",
    "zipCode": "13006",
    "city": "Marseille",
    "state": "Bouches-du-RhÃ´ne",
    "country": "France",
    "latitude": 43.2912377,
    "longitude": 5.383249,
    "imageUrl": null,
    "ratingAvg": 0.0
  },
  {
    "idStore": "513297b35468445c24e7aa92",
    "name": "Sabre Tooth",
    "number": "19",
    "street": "Rue des Trois Mages",
    "zipCode": "13001",
    "city": "Marseille",
    "state": "Bouches-du-RhÃ´ne",
    "country": "France",
    "latitude": 43.2946866,
    "longitude": 5.3846866,
    "imageUrl": null,
    "ratingAvg": 0.0
  },
  {
    "idStore": "513297ef5468445c24e7aa95",
    "name": "Cosmic Groove",
    "number": "1",
    "street": "Rue Saint Come",
    "zipCode": "34000",
    "city": "Montpellier",
    "state": "HÃ©rault",
    "country": "France",
    "latitude": 43.6084011,
    "longitude": 3.8762189,
    "imageUrl": null,
    "ratingAvg": 0.0
  },
  {
    "idStore": "513297ca5468445c24e7aa93",
    "name": "Troc a Zic",
    "number": "Centre Commercial Ville Gozet",
    "street": "Avenue de la RÃ©publique",
    "zipCode": "03100",
    "city": "MontluÃ§on",
    "state": "Allier",
    "country": "France",
    "latitude": 46.34652,
    "longitude": 2.59688,
    "imageUrl": null,
    "ratingAvg": 0.0
  },
  {
    "idStore": "5134910d5468443d48e75b3b",
    "name": "Point Show",
    "number": "6",
    "street": "Rue Elie Berthet",
    "zipCode": "87000",
    "city": "Limoges",
    "state": "Haute-Vienne",
    "country": "France",
    "latitude": 45.829687,
    "longitude": 1.2600491,
    "imageUrl": null,
    "ratingAvg": 0.0
  },
  {
    "idStore": "513491325468443d48e75b3d",
    "name": "La DÃ©mothÃ¨que",
    "number": "8",
    "street": "Avenue Daumesnil",
    "zipCode": "24000",
    "city": "PÃ©rigueux",
    "state": "Dordogne",
    "country": "France",
    "latitude": 45.1838915,
    "longitude": 0.723764,
    "imageUrl": "http://disquaire.cleverapps.io/disquaire/resources/image/logo_demotheque.png",
    "ratingAvg": 0.0
  },
  {
    "idStore": "513491855468443d48e75b42",
    "name": "Transat",
    "number": "185",
    "street": "Rue du Faubourg du Pont Neuf",
    "zipCode": "86000",
    "city": "Poitiers",
    "state": "Vienne",
    "country": "France",
    "latitude": 46.5727105,
    "longitude": 0.3597298,
    "imageUrl": null,
    "ratingAvg": 0.0
  },
  {
    "idStore": "513491dc5468443d48e75b43",
    "name": "Croc'Vinyl",
    "number": "12",
    "street": "Rue Des Lois",
    "zipCode": "31000",
    "city": "Toulouse",
    "state": "Haute-Garonne",
    "country": "France",
    "latitude": 43.6052637,
    "longitude": 1.4422753,
    "imageUrl": null,
    "ratingAvg": 0.0
  },
  {
    "idStore": "513492335468443d48e75b48",
    "name": "Paul Emile Vinyles",
    "number": "5",
    "street": "Rue Temponieres",
    "zipCode": "31000",
    "city": "Toulouse",
    "state": "Haute-Garonne",
    "country": "France",
    "latitude": 43.6014976,
    "longitude": 1.442754,
    "imageUrl": null,
    "ratingAvg": 0.0
  },
  {
    "idStore": "512d324654684414989214b3",
    "name": "Harmonia Mundi",
    "number": "20",
    "street": "Place de Verdun",
    "zipCode": "13100",
    "city": "Aix en Provence",
    "state": "Bouches-du-RhÃ´ne",
    "country": "France",
    "latitude": 43.5281851,
    "longitude": 5.4510867,
    "imageUrl": "http://disquaire.cleverapps.io/disquaire/resources/image/harmonia_mundi.jpg",
    "ratingAvg": 0.0
  },
  {
    "idStore": "512d32e054684414989214b5",
    "name": "Harmonia Mundi",
    "number": "3-5",
    "street": "Rue du PrÃ©sident Wilson",
    "zipCode": "13200",
    "city": "Arles",
    "state": "Bouches-du-RhÃ´ne",
    "country": "France",
    "latitude": 43.676675,
    "longitude": 4.627502,
    "imageUrl": "http://disquaire.cleverapps.io/disquaire/resources/image/harmonia_mundi.jpg",
    "ratingAvg": 0.0
  },
  {
    "idStore": "51328e215468445c24e7aa83",
    "name": "Harmonia Mundi",
    "number": "43",
    "street": "Rue PÃ©roliÃ¨re",
    "zipCode": "05000",
    "city": "Gap",
    "state": "Hautes-Alpes",
    "country": "France",
    "latitude": 44.559638,
    "longitude": 6.079758,
    "imageUrl": "http://disquaire.cleverapps.io/disquaire/resources/image/harmonia_mundi.jpg",
    "ratingAvg": 0.0
  },
  {
    "idStore": "513496ea5468443d48e75b57",
    "name": "Harmonia Mundi",
    "number": "40",
    "street": "Rue du Stand",
    "zipCode": "1204",
    "city": "GenÃ¨ve",
    "state": null,
    "country": "Suisse",
    "latitude": 46.20331,
    "longitude": 6.13827,
    "imageUrl": "http://disquaire.cleverapps.io/disquaire/resources/image/harmonia_mundi.jpg",
    "ratingAvg": 0.0
  },
  {
    "idStore": "51328e415468445c24e7aa85",
    "name": "Harmonia Mundi",
    "number": "11",
    "street": "Grande Rue",
    "zipCode": "38000",
    "city": "Grenoble",
    "state": "IsÃ¨re",
    "country": "France",
    "latitude": 45.1920992,
    "longitude": 5.728659,
    "imageUrl": "http://disquaire.cleverapps.io/disquaire/resources/image/harmonia_mundi.jpg",
    "ratingAvg": 0.0
  },
  {
    "idStore": "51328e925468445c24e7aa8a",
    "name": "Harmonia Mundi",
    "number": "21",
    "street": "Rue Du PrÃ©sident Edouard Herriot",
    "zipCode": "69001",
    "city": "Lyon",
    "state": "RhÃ´ne",
    "country": "France",
    "latitude": 45.764043,
    "longitude": 4.835659,
    "imageUrl": "http://disquaire.cleverapps.io/disquaire/resources/image/harmonia_mundi.jpg",
    "ratingAvg": 0.0
  },
  {
    "idStore": "513490395468443d48e75b2f",
    "name": "Harmonia Mundi",
    "number": "18",
    "street": "Rue De lâ€™Ange",
    "zipCode": "66000",
    "city": "Perpignan",
    "state": "PyrÃ©nÃ©es-Orientales",
    "country": "France",
    "latitude": 42.698136,
    "longitude": 2.893779,
    "imageUrl": "http://disquaire.cleverapps.io/disquaire/resources/image/harmonia_mundi.jpg",
    "ratingAvg": 0.0
  },
  {
    "idStore": "5126a29854684428f0a5cebe",
    "name": "Harmonia Mundi",
    "number": "11",
    "street": "Rue GuÃ©odet",
    "zipCode": "29000",
    "city": "Quimper",
    "state": "FinistÃ¨re",
    "country": "France",
    "latitude": 47.996177,
    "longitude": -4.103952,
    "imageUrl": "http://disquaire.cleverapps.io/disquaire/resources/image/harmonia_mundi.jpg",
    "ratingAvg": 0.0
  },
  {
    "idStore": "512d321154684414989214b0",
    "name": "Harmonia Mundi",
    "number": "21",
    "street": "Rue Des Juifs",
    "zipCode": "67000",
    "city": "Strasbourg",
    "state": "Bas-Rhin",
    "country": "France",
    "latitude": 48.5837962,
    "longitude": 7.7529267,
    "imageUrl": "http://disquaire.cleverapps.io/disquaire/resources/image/harmonia_mundi.jpg",
    "ratingAvg": 0.0
  },
  {
    "idStore": "513491ff5468443d48e75b45",
    "name": "Harmonia Mundi",
    "number": "56",
    "street": "Rue Gambetta",
    "zipCode": "31000",
    "city": "Toulouse",
    "state": "Haute-Garonne",
    "country": "France",
    "latitude": 43.6037032,
    "longitude": 1.4424796,
    "imageUrl": "http://disquaire.cleverapps.io/disquaire/resources/image/harmonia_mundi.jpg",
    "ratingAvg": 0.0
  },
  {
    "idStore": "512d28385468441498921497",
    "name": "Harmonia Mundi",
    "number": "15",
    "street": "Rue Nationale",
    "zipCode": "37000",
    "city": "Tours",
    "state": "Indre-et-Loire",
    "country": "France",
    "latitude": 47.3952681,
    "longitude": 0.6866017,
    "imageUrl": "http://disquaire.cleverapps.io/disquaire/resources/image/harmonia_mundi.jpg",
    "ratingAvg": 0.0
  },
  {
    "idStore": "5134986e5468443d48e75b5c",
    "name": "Harmonia Mundi",
    "number": "9",
    "street": "FraumÃ¼nsterstrasse",
    "zipCode": "8001",
    "city": "ZÃ¼rich",
    "state": null,
    "country": "Suisse",
    "latitude": 47.3686498,
    "longitude": 8.5391825,
    "imageUrl": "http://disquaire.cleverapps.io/disquaire/resources/image/harmonia_mundi.jpg",
    "ratingAvg": 0.0
  },
  {
    "idStore": "512699515468441ae8b25f9f",
    "name": "Rock Paradise",
    "number": "42",
    "street": "Rue Duranton",
    "zipCode": "75015",
    "city": "Paris",
    "state": "Paris",
    "country": "France",
    "latitude": 48.8389518,
    "longitude": 2.2880055,
    "imageUrl": null,
    "ratingAvg": 0.0
  },
  {
    "idStore": "52456d58e4b05449f1410777",
    "name": "Heartbeat Vinyl",
    "number": "26",
    "street": "Rue Godefroy Cavaignac",
    "zipCode": "75001",
    "city": "Paris",
    "state": "Paris",
    "country": "France",
    "latitude": 48.855461,
    "longitude": 2.381026,
    "imageUrl": null,
    "ratingAvg": 0.0
  },
  {
    "idStore": "524598a7e4b05449f1410778",
    "name": "Sonic Import",
    "number": "15",
    "street": "Avenue MarÃ©chal Foch",
    "zipCode": "06000",
    "city": "Nice",
    "state": "Alpes-Maritimes",
    "country": "France",
    "latitude": 43.704166,
    "longitude": 7.270938,
    "imageUrl": null,
    "ratingAvg": 0.0
  },
  {
    "idStore": "52459c1ee4b05449f1410779",
    "name": "Vinyle Record Shop",
    "number": "19",
    "street": "Rue Haddad Simon",
    "zipCode": "06400",
    "city": "Cannes",
    "state": "Alpes-Maritimes",
    "country": "France",
    "latitude": 43.555188,
    "longitude": 7.023226,
    "imageUrl": null,
    "ratingAvg": 0.0
  },
  {
    "idStore": "52459dade4b05449f141077a",
    "name": "Discotis",
    "number": "2",
    "street": "Rond Point Duboys d`Angers",
    "zipCode": "06400",
    "city": "Cannes",
    "state": "Alpes-Maritimes",
    "country": "France",
    "latitude": 43.551419,
    "longitude": 7.026561,
    "imageUrl": null,
    "ratingAvg": 0.0
  },
  {
    "idStore": "52459fc4e4b05449f141077b",
    "name": "Adrenalyn Records",
    "number": "48",
    "street": "Rue Alsace Lorraine",
    "zipCode": "17100",
    "city": "Saintes",
    "state": "Charente-Maritime",
    "country": "France",
    "latitude": 45.746601,
    "longitude": -0.633415,
    "imageUrl": "https://disquaire.cleverapps.io/disquaire/resources/image/logo_adrenalyn.png",
    "ratingAvg": 0.0
  },
  {
    "idStore": "5245ae7ee4b05449f141077c",
    "name": "Black Music",
    "number": "10",
    "street": "Rue Des Trois Mages",
    "zipCode": "13006",
    "city": "Marseille",
    "state": "Bouches-du-RhÃ´ne",
    "country": "France",
    "latitude": 43.295238,
    "longitude": 5.383481,
    "imageUrl": null,
    "ratingAvg": 0.0
  },
  {
    "idStore": "5245b209e4b05449f141077d",
    "name": "Massilia Records",
    "number": "9",
    "street": "Cours Lieutaud",
    "zipCode": "13006",
    "city": "Marseille",
    "state": "Bouches-du-RhÃ´ne",
    "country": "France",
    "latitude": 43.294739,
    "longitude": 5.381974,
    "imageUrl": null,
    "ratingAvg": 0.0
  },
  {
    "idStore": "5245b3d0e4b05449f141077e",
    "name": "Tangerine",
    "number": "20",
    "street": "Rue Des Trois Mages",
    "zipCode": "13006",
    "city": "Marseille",
    "state": "Bouches-du-RhÃ´ne",
    "country": "France",
    "latitude": 43.294973,
    "longitude": 5.383948,
    "imageUrl": null,
    "ratingAvg": 0.0
  },
  {
    "idStore": "5245ba0be4b05449f141077f",
    "name": "Disc'orama Record Shop",
    "number": "12",
    "street": "Rue GÃ©rin",
    "zipCode": "38000",
    "city": "Grenoble",
    "state": "IsÃ¨re",
    "country": "France",
    "latitude": 45.187543,
    "longitude": 5.711235,
    "imageUrl": null,
    "ratingAvg": 0.0
  },
  {
    "idStore": "5245bc55e4b05449f1410780",
    "name": "Foolcat Records",
    "number": "5",
    "street": "Rue Michel Rondet",
    "zipCode": "42000",
    "city": "Saint Etienne",
    "state": "Loire",
    "country": "France",
    "latitude": 45.438309,
    "longitude": 4.386845,
    "imageUrl": null,
    "ratingAvg": 0.0
  },
  {
    "idStore": "5245bdb0e4b05449f1410781",
    "name": "CD-BD",
    "number": "5",
    "street": "Place Mondain Chanlouineau",
    "zipCode": "49100",
    "city": "Angers",
    "state": "Maine-et-Loire",
    "country": "France",
    "latitude": 47.471379,
    "longitude": -0.554253,
    "imageUrl": null,
    "ratingAvg": 0.0
  },
  {
    "idStore": "5245bfdce4b05449f1410782",
    "name": "Vinyl 33 45",
    "number": "86",
    "street": "Avenue du MarÃ©chal De Lattre de Tassigny",
    "zipCode": "54000",
    "city": "Nancy",
    "state": "Meuthe-et-Moselle",
    "country": "France",
    "latitude": 48.683194,
    "longitude": 6.190167,
    "imageUrl": null,
    "ratingAvg": 0.0
  },
  {
    "idStore": "5245c1ebe4b05449f1410783",
    "name": "Le Mange Disque",
    "number": "40",
    "street": "Rue Des Fontaines",
    "zipCode": "60600",
    "city": "Clermont",
    "state": "Oise",
    "country": "France",
    "latitude": 49.377235,
    "longitude": 2.411488,
    "imageUrl": null,
    "ratingAvg": 0.0
  },
  {
    "idStore": "5245c328e4b05449f1410784",
    "name": "Pop Music",
    "number": "25 bis",
    "street": "Rue De Noailles",
    "zipCode": "78000",
    "city": "Versailles",
    "state": "Yvelines",
    "country": "France",
    "latitude": 48.798153,
    "longitude": 2.134921,
    "imageUrl": null,
    "ratingAvg": 0.0
  },
  {
    "idStore": "5245c485e4b05449f1410785",
    "name": "CMalin",
    "number": "25",
    "street": "Rue des Halles",
    "zipCode": "85000",
    "city": "La Roche sur Yon",
    "state": "VendÃ©e",
    "country": "France",
    "latitude": 46.669535,
    "longitude": -1.424338,
    "imageUrl": null,
    "ratingAvg": 0.0
  },
  {
    "idStore": "5245c851e4b05449f1410786",
    "name": "Les Mondes Perdus",
    "number": "72",
    "street": "Rue Cauchoise",
    "zipCode": "76000",
    "city": "Rouen",
    "state": "Seine-Maritime",
    "country": "France",
    "latitude": 49.444992,
    "longitude": 1.087051,
    "imageUrl": null,
    "ratingAvg": 0.0
  },
  {
    "idStore": "5245c9b2e4b05449f1410787",
    "name": "Vinyl Corner Shop",
    "number": "95",
    "street": "Rue Cauchoise",
    "zipCode": "76000",
    "city": "Rouen",
    "state": "Seine-Maritime",
    "country": "France",
    "latitude": 49.445527,
    "longitude": 1.086632,
    "imageUrl": null,
    "ratingAvg": 0.0
  },
  {
    "idStore": "5245cc96e4b05449f1410788",
    "name": "Jet records",
    "number": "14",
    "street": "Avenue du MarÃ©chal Foch",
    "zipCode": "64200",
    "city": "Biarritz",
    "state": "PyrÃ©nÃ©es-Atlantique",
    "country": "France",
    "latitude": 43.480793,
    "longitude": -1.5589,
    "imageUrl": null,
    "ratingAvg": 0.0
  },
  {
    "idStore": "5245cfffe4b05449f1410789",
    "name": "Planete Claire",
    "number": "11",
    "street": "Rue Croix de Malte",
    "zipCode": "45000",
    "city": "OrlÃ©ans",
    "state": "Loiret",
    "country": "France",
    "latitude": 47.90409,
    "longitude": 1.905657,
    "imageUrl": "https://disquaire.cleverapps.io/disquaire/resources/image/logo_planete_claire.png",
    "ratingAvg": 4.5
  },
  {
    "idStore": "5245d1bfe4b05449f141078a",
    "name": "Funny Vintage",
    "number": "21",
    "street": "Rue De La Barre",
    "zipCode": "59000",
    "city": "LIlle",
    "state": "Nord",
    "country": "France",
    "latitude": 50.638704,
    "longitude": 3.057536,
    "imageUrl": null,
    "ratingAvg": 0.0
  },
  {
    "idStore": "5245d366e4b05449f141078b",
    "name": "Notes en Bulles",
    "number": "172",
    "street": "Rue SolfÃ©rino",
    "zipCode": "59000",
    "city": "Lille",
    "state": "Nord",
    "country": "France",
    "latitude": 50.630811,
    "longitude": 3.05537,
    "imageUrl": null,
    "ratingAvg": 0.0
  },
  {
    "idStore": "5245efc0e4b06490dd123106",
    "name": "Rock`n Bones",
    "number": "7",
    "street": "Rue De La Motte Fablet",
    "zipCode": "35000",
    "city": "Rennes",
    "state": "Ille-et-Vilaine",
    "country": "France",
    "latitude": 48.114252,
    "longitude": -1.679473,
    "imageUrl": "http://disquaire.cleverapps.io/disquaire/resources/image/logo_rockinbones.png",
    "ratingAvg": 2.0
  },
  {
    "idStore": "5245f21ce4b06490dd123107",
    "name": "Vinyl Factory",
    "number": "1",
    "street": "Rue Des FossÃ©s",
    "zipCode": "35000",
    "city": "Rennes",
    "state": "Ille-et-Vilaine",
    "country": "France",
    "latitude": 48.11363,
    "longitude": -1.677089,
    "imageUrl": null,
    "ratingAvg": 0.0
  },
  {
    "idStore": "5245f576e4b06490dd123108",
    "name": "Les Troubadours du Chaos",
    "number": "48",
    "street": "Rue De St Malo",
    "zipCode": "35000",
    "city": "Rennes",
    "state": "Ille-et-Vilaine",
    "country": "France",
    "latitude": 48.116729,
    "longitude": -1.680802,
    "imageUrl": null,
    "ratingAvg": 0.0
  },
  {
    "idStore": "5245f751e4b06490dd123109",
    "name": "Boutique Du Collectionneur",
    "number": "11",
    "street": "Rue De L'arche SÃ¨che",
    "zipCode": "44000",
    "city": "Nantes",
    "state": "Loire-Atlantique",
    "country": "France",
    "latitude": 47.216406,
    "longitude": -1.55846,
    "imageUrl": null,
    "ratingAvg": 0.0
  },
  {
    "idStore": "5245f9ebe4b06490dd12310a",
    "name": "PlanÃ¨te Disques",
    "number": "7",
    "street": "Rue Lanterne",
    "zipCode": "69001",
    "city": "Lyon",
    "state": "RhÃ´ne",
    "country": "France",
    "latitude": 45.766892,
    "longitude": 4.831794,
    "imageUrl": null,
    "ratingAvg": 0.0
  },
  {
    "idStore": "5245fc23e4b06490dd12310b",
    "name": "Ma Non Troppo",
    "number": "31",
    "street": "Rue Du Boeuf",
    "zipCode": "69005",
    "city": "Lyon",
    "state": "RhÃ´ne",
    "country": "France",
    "latitude": 45.761999,
    "longitude": 4.826211,
    "imageUrl": null,
    "ratingAvg": 0.0
  },
  {
    "idStore": "5245fdc1e4b06490dd12310c",
    "name": "Boul`Dingue",
    "number": "8",
    "street": "Rue Du Palais De Justice",
    "zipCode": "69005",
    "city": "Lyon",
    "state": "RhÃ´ne",
    "country": "France",
    "latitude": 45.762479,
    "longitude": 4.827605,
    "imageUrl": null,
    "ratingAvg": 0.0
  },
  {
    "idStore": "5245fe5ee4b06490dd12310d",
    "name": "Harmonia Mundi",
    "number": "252",
    "street": "Rue Du Faubourg Saint-HonorÃ©",
    "zipCode": "75008",
    "city": "Paris",
    "state": "Paris",
    "country": "France",
    "latitude": 48.876902,
    "longitude": 2.300828,
    "imageUrl": "http://disquaire.cleverapps.io/disquaire/resources/image/harmonia_mundi.jpg",
    "ratingAvg": 0.0
  },
  {
    "idStore": "5245ff3ce4b06490dd12310e",
    "name": "Paris Jazz Corner",
    "number": "8",
    "street": "Rue De Nancy",
    "zipCode": "75010",
    "city": "Paris",
    "state": "Paris",
    "country": "France",
    "latitude": 48.872334,
    "longitude": 2.358623,
    "imageUrl": null,
    "ratingAvg": 0.0
  },
  {
    "idStore": "52460077e4b06490dd12310f",
    "name": "ThÃ© Troc",
    "number": "52",
    "street": "Rue Jean-Pierre Timbaud",
    "zipCode": "75011",
    "city": "Paris",
    "state": "Paris",
    "country": "France",
    "latitude": 48.86651,
    "longitude": 2.372941,
    "imageUrl": null,
    "ratingAvg": 0.0
  },
  {
    "idStore": "52460373e4b06490dd123110",
    "name": "Crazy Rock Circus",
    "number": "83",
    "street": "Rue De La Tombe-Issoire",
    "zipCode": "75014",
    "city": "Paris",
    "state": "Paris",
    "country": "France",
    "latitude": 48.827156,
    "longitude": 2.332242,
    "imageUrl": null,
    "ratingAvg": 0.0
  },
  {
    "idStore": "5247e17ce4b06490dd123112",
    "name": "Kiosque",
    "number": null,
    "street": "Rue Louis Pergaud",
    "zipCode": "16000",
    "city": "AngoulÃ¨me",
    "state": "Charente",
    "country": "France",
    "latitude": 45.640253,
    "longitude": 0.125875,
    "imageUrl": null,
    "ratingAvg": 0.0
  },
  {
    "idStore": "5247e44de4b06490dd123113",
    "name": "Rock'n'Broc Azimut Circus",
    "number": "3",
    "street": "Rue Raspail",
    "zipCode": "91290",
    "city": "Arpajon",
    "state": "Essonne",
    "country": "France",
    "latitude": 48.588568,
    "longitude": 2.248826,
    "imageUrl": null,
    "ratingAvg": 0.0
  },
  {
    "idStore": "5247e65de4b06490dd123114",
    "name": "Wally's Groove World",
    "number": "126",
    "street": "Lange Nieuwstraat",
    "zipCode": "2000",
    "city": "Anvers",
    "state": null,
    "country": "Belgique",
    "latitude": 51.219535,
    "longitude": 4.413547,
    "imageUrl": null,
    "ratingAvg": 0.0
  },
  {
    "idStore": "52482c2ae4b06490dd123115",
    "name": "Deepend Records",
    "number": "16",
    "street": "Rue Porte Basse",
    "zipCode": "33000",
    "city": "Bordeaux",
    "state": "Gironde",
    "country": "France",
    "latitude": 44.836707,
    "longitude": -0.575268,
    "imageUrl": null,
    "ratingAvg": 0.0
  },
  {
    "idStore": "52482d91e4b06490dd123116",
    "name": "Librairie Micita",
    "number": "7",
    "street": "Place De La Ferme Richemont",
    "zipCode": "33000",
    "city": "Bordeaux",
    "state": "Gironde",
    "country": "France",
    "latitude": 44.835813,
    "longitude": -0.572156,
    "imageUrl": null,
    "ratingAvg": 0.0
  },
  {
    "idStore": "524831d6e4b06490dd123118",
    "name": "Diabolo Menthe",
    "number": "30",
    "street": "Rue Cheverus",
    "zipCode": "33000",
    "city": "Bordeaux",
    "state": "Gironde",
    "country": "France",
    "latitude": 44.838385,
    "longitude": -0.575681,
    "imageUrl": null,
    "ratingAvg": 0.0
  },
  {
    "idStore": "524833e9e4b06490dd123119",
    "name": "Artloud",
    "number": "35",
    "street": "Rue Yves Collet",
    "zipCode": "29200",
    "city": "Brest",
    "state": "FinistÃ¨re",
    "country": "France",
    "latitude": 48.392074,
    "longitude": -4.479955,
    "imageUrl": null,
    "ratingAvg": 0.0
  },
  {
    "idStore": "52483662e4b06490dd12311a",
    "name": "Arlequin",
    "number": "7",
    "street": "Rue Des ChÃ¨nes",
    "zipCode": "1000",
    "city": "Bruxelles",
    "state": null,
    "country": "Belgique",
    "latitude": 50.844817,
    "longitude": 4.350067,
    "imageUrl": null,
    "ratingAvg": 0.0
  },
  {
    "idStore": "52483aafe4b0a39a07681748",
    "name": "Doctor Vinyl",
    "number": "1",
    "street": "Rue De La Grande ÃŽle",
    "zipCode": "1000",
    "city": "Bruxelles",
    "state": null,
    "country": "Belgique",
    "latitude": 50.847659,
    "longitude": 4.347027,
    "imageUrl": null,
    "ratingAvg": 0.0
  },
  {
    "idStore": "52484414e4b0a39a07681749",
    "name": "BCM",
    "number": "6",
    "street": "Plattesteen",
    "zipCode": "1000",
    "city": "Bruxelles",
    "state": null,
    "country": "Belgique",
    "latitude": 50.846766,
    "longitude": 4.348697,
    "imageUrl": null,
    "ratingAvg": 0.0
  },
  {
    "idStore": "5248451ae4b0a39a0768174a",
    "name": "Goupil-o-phone",
    "number": "101",
    "street": "Boulevard Anspach",
    "zipCode": "1000",
    "city": "Bruxelles",
    "state": null,
    "country": "Belgique",
    "latitude": 50.847192,
    "longitude": 4.348452,
    "imageUrl": null,
    "ratingAvg": 0.0
  },
  {
    "idStore": "52484698e4b0a39a0768174b",
    "name": "United Musik",
    "number": "26",
    "street": "Place Fontainas",
    "zipCode": "1000",
    "city": "Bruxelles",
    "state": null,
    "country": "Belgique",
    "latitude": 50.844963,
    "longitude": 4.346552,
    "imageUrl": null,
    "ratingAvg": 0.0
  },
  {
    "idStore": "52484ae6e4b0a39a0768174c",
    "name": "Dub Wise",
    "number": "60",
    "street": "Rue Hermel",
    "zipCode": "75018",
    "city": "Paris",
    "state": "Paris",
    "country": "France",
    "latitude": 48.894292,
    "longitude": 2.346014,
    "imageUrl": null,
    "ratingAvg": 0.0
  },
  {
    "idStore": "52484bdae4b0a39a0768174d",
    "name": "La Dame Blanche",
    "number": "47",
    "street": "Rue De La Montagne Sainte-GeneviÃ¨ve",
    "zipCode": "75005",
    "city": "Paris",
    "state": "Paris",
    "country": "France",
    "latitude": 48.846961,
    "longitude": 2.347999,
    "imageUrl": null,
    "ratingAvg": 0.0
  },
  {
    "idStore": "52484df0e4b0a39a0768174e",
    "name": "Rocket Records",
    "number": "140",
    "street": "Rue Des Rosiers",
    "zipCode": "93400",
    "city": "Saint-Ouen",
    "state": "Seine-Saint-Denis",
    "country": "France",
    "latitude": 48.902207,
    "longitude": 2.342376,
    "imageUrl": "http://disquaire.cleverapps.io/disquaire/resources/image/logo_rocket_records.png",
    "ratingAvg": 0.0
  },
  {
    "idStore": "52484feee4b0a39a0768174f",
    "name": "CrocoJazz",
    "number": "64",
    "street": "Rue De La Montagne-Sainte-GeneviÃ¨ve",
    "zipCode": "75005",
    "city": "Paris",
    "state": "Paris",
    "country": "France",
    "latitude": 48.846958,
    "longitude": 2.348002,
    "imageUrl": null,
    "ratingAvg": 0.0
  },
  {
    "idStore": "5248544be4b0a39a07681750",
    "name": "Toon'Z Shop",
    "number": "62",
    "street": "Grand Rue",
    "zipCode": "86000",
    "city": "Poitiers",
    "state": "Vienne",
    "country": "France",
    "latitude": 46.581751,
    "longitude": 0.350182,
    "imageUrl": "https://disquaire.cleverapps.io/disquaire/resources/image/logo_toon_z_shop_records.png",
    "ratingAvg": 5.0
  },
  {
    "idStore": "52485593e4b0a39a07681751",
    "name": "Timeless Vinyls",
    "number": "127",
    "street": "Rue De Turenne",
    "zipCode": "75003",
    "city": "Paris",
    "state": "Paris",
    "country": "France",
    "latitude": 48.863959,
    "longitude": 2.364698,
    "imageUrl": null,
    "ratingAvg": 0.0
  },
  {
    "idStore": "52485712e4b0a39a07681752",
    "name": "Goodies Records",
    "number": "3",
    "street": "Rue Palestro",
    "zipCode": "75002",
    "city": "Paris",
    "state": "Paris",
    "country": "France",
    "latitude": 48.864519,
    "longitude": 2.350998,
    "imageUrl": null,
    "ratingAvg": 0.0
  },
  {
    "idStore": "524858dce4b0a39a07681753",
    "name": "Exodisc",
    "number": "70",
    "street": "Rue Du Mont-Genis",
    "zipCode": "75018",
    "city": "Paris",
    "state": "Paris",
    "country": "France",
    "latitude": 48.891691,
    "longitude": 2.343886,
    "imageUrl": "http://disquaire.cleverapps.io/disquaire/resources/image/logo_exodisc.png",
    "ratingAvg": 0.0
  },
  {
    "idStore": "52485a78e4b0a39a07681754",
    "name": "Bimbo Tower",
    "number": "135",
    "street": "Rue De La Roquette",
    "zipCode": "75011",
    "city": "Paris",
    "state": "Paris",
    "country": "France",
    "latitude": 48.858578,
    "longitude": 2.38384,
    "imageUrl": null,
    "ratingAvg": 0.0
  },
  {
    "idStore": "52485cc7e4b0a39a07681755",
    "name": "Armadillo Disques",
    "number": "32",
    "street": "Rue Pharaon",
    "zipCode": "31000",
    "city": "Toulouse",
    "state": "Haute-Garonne",
    "country": "France",
    "latitude": 43.596193,
    "longitude": 1.444272,
    "imageUrl": null,
    "ratingAvg": 0.0
  },
  {
    "idStore": "52485effe4b0a39a07681756",
    "name": "Pandemonium",
    "number": "2",
    "street": "Rue Cujas",
    "zipCode": "31000",
    "city": "Toulouse",
    "state": "Huate-Garonne",
    "country": "France",
    "latitude": 43.601322,
    "longitude": 1.440801,
    "imageUrl": null,
    "ratingAvg": 0.0
  },
  {
    "idStore": "524861c3e4b0a39a07681757",
    "name": "BaromÃ¨tre",
    "number": "3",
    "street": "Rue Du Petit St-Martin",
    "zipCode": "37000",
    "city": "Tours",
    "state": "Indre-et-Loire",
    "country": "France",
    "latitude": 47.395078,
    "longitude": 0.678837,
    "imageUrl": null,
    "ratingAvg": 0.0
  },
  {
    "idStore": "52486313e4b0a39a07681758",
    "name": "Atmosphere Music",
    "number": "87",
    "street": "Rue Richelieu",
    "zipCode": "76600",
    "city": "Le Havre",
    "state": "Seine-Maritime",
    "country": "France",
    "latitude": 49.489253,
    "longitude": 0.106608,
    "imageUrl": null,
    "ratingAvg": 0.0
  },
  {
    "idStore": "524864c3e4b0a39a07681759",
    "name": "Goodka Records",
    "number": "17",
    "street": "Rue Gabriel PÃ©ri",
    "zipCode": "38000",
    "city": "Grenoble",
    "state": "IsÃ¨re",
    "country": "France",
    "latitude": 45.188391,
    "longitude": 5.718055,
    "imageUrl": null,
    "ratingAvg": 0.0
  },
  {
    "idStore": "512d29d6546844149892149f",
    "name": "Le Discobole",
    "number": "7",
    "street": "Rue De La Porte-Neuve",
    "zipCode": "68000",
    "city": "Colmar",
    "state": "Haut-Rhin",
    "country": "France",
    "latitude": 48.0762213,
    "longitude": 7.3552388,
    "imageUrl": null,
    "ratingAvg": 0.0
  },
  {
    "idStore": "52486798e4b0a39a0768175a",
    "name": "Wizard Music",
    "number": "48",
    "street": "Rue Victor Hugo",
    "zipCode": "81100",
    "city": "Castres",
    "state": "Tarn",
    "country": "France",
    "latitude": 43.603718,
    "longitude": 2.238355,
    "imageUrl": null,
    "ratingAvg": 0.0
  },
  {
    "idStore": "524869b3e4b0a39a0768175b",
    "name": "Kingstock",
    "number": "19",
    "street": "Rue Saint-Martin",
    "zipCode": "14000",
    "city": "Caen",
    "state": "Calvados",
    "country": "France",
    "latitude": 49.183604,
    "longitude": -0.37098,
    "imageUrl": null,
    "ratingAvg": 0.0
  },
  {
    "idStore": "52486cefe4b0a39a0768175c",
    "name": "Black Blue",
    "number": "1",
    "street": "Rue De La Carbonnerie",
    "zipCode": "34000",
    "city": "Montpellier",
    "state": "HÃ©rault",
    "country": "France",
    "latitude": 43.611646,
    "longitude": 3.878338,
    "imageUrl": null,
    "ratingAvg": 0.0
  },
  {
    "idStore": "52487063e4b0a39a0768175d",
    "name": "Big Up",
    "number": "13",
    "street": "Rue Mirail",
    "zipCode": "33000",
    "city": "Bordeaux",
    "state": "Gironde",
    "country": "France",
    "latitude": 44.834365,
    "longitude": -0.571226,
    "imageUrl": null,
    "ratingAvg": 0.0
  },
  {
    "idStore": "52499c55e4b0a39a0768175e",
    "name": "DDD Record Store",
    "number": "46",
    "street": "Rue Albert Thomas",
    "zipCode": "75010",
    "city": "Paris",
    "state": "Paris",
    "country": "France",
    "latitude": 48.87034,
    "longitude": 2.362064,
    "imageUrl": null,
    "ratingAvg": 0.0
  },
  {
    "idStore": "512d280f5468441498921495",
    "name": "Le Disquaire",
    "number": "22",
    "street": "Rue Du General Leclerc",
    "zipCode": "22000",
    "city": "Saint Brieuc",
    "state": "CÃ´tes-d'Armor",
    "country": "France",
    "latitude": 48.5124832,
    "longitude": -2.7603908,
    "imageUrl": "http://disquaire.cleverapps.io/disquaire/resources/image/logo_le_disquaire.png",
    "ratingAvg": 0.0
  },
  {
    "idStore": "512d325e54684414989214b4",
    "name": "Arpeges Musiques",
    "number": "197",
    "street": "Cours Lauze De Perret",
    "zipCode": "84400",
    "city": "Apt",
    "state": "Vaucluse",
    "country": "France",
    "latitude": 43.8751504,
    "longitude": 5.3992591,
    "imageUrl": null,
    "ratingAvg": 0.0
  },
  {
    "idStore": "513491515468443d48e75b3f",
    "name": "Superlove Disc & More",
    "number": "6",
    "street": "AllÃ©e EugÃ¨ne Delacroix",
    "zipCode": "33600",
    "city": "Pessac",
    "state": "Gironde",
    "country": "France",
    "latitude": 44.80583,
    "longitude": -0.630386,
    "imageUrl": null,
    "ratingAvg": 0.0
  },
  {
    "idStore": "5247df63e4b06490dd123111",
    "name": "King Bees Music",
    "number": "26",
    "street": "Rue Garonne",
    "zipCode": "47000",
    "city": "Agen",
    "state": "Lot-et-Garonne",
    "country": "France",
    "latitude": 44.204395,
    "longitude": 0.616259,
    "imageUrl": null,
    "ratingAvg": 0.0
  },
  {
    "idStore": "524eaab6e4b041ac17631e25",
    "name": "Born Bad",
    "number": "11",
    "street": "Rue Saint Sabin",
    "zipCode": "75011",
    "city": "Paris",
    "state": "Paris",
    "country": "France",
    "latitude": 48.855143,
    "longitude": 2.37197,
    "imageUrl": null,
    "ratingAvg": 0.0
  },
  {
    "idStore": "525d3b7ee4b0443db3af5383",
    "name": "Disc Ayres",
    "number": "61",
    "street": "Rue des Ayres",
    "zipCode": "33000",
    "city": "Bordeaux",
    "state": "Gironde",
    "country": "France",
    "latitude": 44.836853,
    "longitude": -0.574541,
    "imageUrl": null,
    "ratingAvg": 0.0
  },
  {
    "idStore": "525d3e14e4b0443db3af5384",
    "name": "L'Oreille KC",
    "number": "10",
    "street": "Rue Burgeaud",
    "zipCode": "29200",
    "city": "Brest",
    "state": "FinistÃ¨re",
    "country": "France",
    "latitude": 48.395885,
    "longitude": -4.478611,
    "imageUrl": null,
    "ratingAvg": 0.0
  },
  {
    "idStore": "5265368ce4b0fe213634d822",
    "name": "Wax Nation Shop",
    "number": "19",
    "street": "Place Roger Salengro",
    "zipCode": "59140",
    "city": "Dunkerque",
    "state": "Nord",
    "country": "France",
    "latitude": 51.036018,
    "longitude": 2.374389,
    "imageUrl": null,
    "ratingAvg": 0.0
  },
  {
    "idStore": "5265383ee4b0fe213634d823",
    "name": "Store Records",
    "number": "90",
    "street": "Rue Saint Samson",
    "zipCode": "59500",
    "city": "Douai",
    "state": "Nord",
    "country": "France",
    "latitude": 50.369409,
    "longitude": 3.074138,
    "imageUrl": null,
    "ratingAvg": 0.0
  },
  {
    "idStore": "527622eae4b07a417b0b31e7",
    "name": "Pop Culture Shop",
    "number": "23",
    "street": "Rue Keller",
    "zipCode": "75011",
    "city": "Paris",
    "state": "Paris",
    "country": null,
    "latitude": 48.855228,
    "longitude": 2.375433,
    "imageUrl": null,
    "ratingAvg": 0.0
  }
]